{"entriesCount":674,"uniqueWordsCount":9786,"wordsAndCounts":[{"word":"time","count":614},{"word":"school","count":556},{"word":"home","count":523},{"word":"people","count":424},{"word":"day","count":421},{"word":"friends","count":406},{"word":"covid","count":390},{"word":"family","count":363},{"word":"work","count":320},{"word":"back","count":308},{"word":"life","count":295},{"word":"things","count":260},{"word":"world","count":247},{"word":"virus","count":240},{"word":"pandemic","count":213},{"word":"year","count":209},{"word":"online","count":195},{"word":"good","count":190},{"word":"feel","count":171},{"word":"isolation","count":169},{"word":"days","count":167},{"word":"weeks","count":164},{"word":"week","count":153},{"word":"thing","count":151},{"word":"started","count":146},{"word":"stay","count":141},{"word":"social","count":138},{"word":"house","count":133},{"word":"made","count":131},{"word":"hard","count":125},{"word":"today","count":123},{"word":"miss","count":123},{"word":"lot","count":121},{"word":"years","count":119},{"word":"working","count":118},{"word":"hope","count":118},{"word":"paper","count":109},{"word":"didnt","count":108},{"word":"learning","count":106},{"word":"coronavirus","count":105},{"word":"live","count":103},{"word":"corona","count":102},{"word":"toilet","count":100},{"word":"make","count":97},{"word":"times","count":97},{"word":"thought","count":95},{"word":"news","count":93},{"word":"long","count":92},{"word":"australia","count":91},{"word":"walk","count":91},{"word":"lives","count":91},{"word":"bad","count":88},{"word":"end","count":87},{"word":"lockdown","count":86},{"word":"restrictions","count":86},{"word":"face","count":86},{"word":"months","count":85},{"word":"normal","count":82},{"word":"love","count":82},{"word":"zoom","count":81},{"word":"morning","count":81},{"word":"hand","count":77},{"word":"living","count":77},{"word":"great","count":76},{"word":"changed","count":76},{"word":"fun","count":74},{"word":"play","count":74},{"word":"happy","count":74},{"word":"safe","count":74},{"word":"put","count":73},{"word":"experience","count":73},{"word":"quarantine","count":72},{"word":"felt","count":70},{"word":"hands","count":70},{"word":"kids","count":70},{"word":"find","count":70},{"word":"distancing","count":69},{"word":"found","count":68},{"word":"start","count":67},{"word":"allowed","count":65},{"word":"feeling","count":65},{"word":"children","count":64},{"word":"friend","count":63},{"word":"wasnt","count":63},{"word":"food","count":63},{"word":"bit","count":61},{"word":"teachers","count":61},{"word":"mind","count":61},{"word":"mum","count":59},{"word":"finally","count":59},{"word":"place","count":59},{"word":"talk","count":59},{"word":"lucky","count":58},{"word":"havent","count":58},{"word":"job","count":58},{"word":"night","count":58},{"word":"sydney","count":57},{"word":"high","count":57},{"word":"staying","count":57},{"word":"room","count":57},{"word":"lost","count":55},{"word":"spread","count":55},{"word":"couldnt","count":55},{"word":"country","count":54},{"word":"grateful","count":54},{"word":"spend","count":53},{"word":"remember","count":53},{"word":"making","count":53},{"word":"full","count":53},{"word":"left","count":53},{"word":"future","count":53},{"word":"told","count":53},{"word":"part","count":52},{"word":"watching","count":52},{"word":"everyday","count":52},{"word":"class","count":51},{"word":"early","count":51},{"word":"care","count":51},{"word":"exercise","count":50},{"word":"due","count":50},{"word":"bed","count":50},{"word":"cancelled","count":49},{"word":"phone","count":49},{"word":"isnt","count":49},{"word":"parents","count":49},{"word":"change","count":49},{"word":"fear","count":48},{"word":"health","count":48},{"word":"moment","count":48},{"word":"crazy","count":47},{"word":"wait","count":47},{"word":"past","count":47},{"word":"visit","count":47},{"word":"pretty","count":47},{"word":"husband","count":47},{"word":"enjoy","count":46},{"word":"talking","count":46},{"word":"ago","count":46},{"word":"read","count":46},{"word":"open","count":45},{"word":"daily","count":45},{"word":"nice","count":45},{"word":"front","count":45},{"word":"side","count":45},{"word":"big","count":44},{"word":"air","count":44},{"word":"person","count":44},{"word":"dog","count":44},{"word":"small","count":44},{"word":"watch","count":43},{"word":"reading","count":43},{"word":"distance","count":42},{"word":"sleep","count":42},{"word":"lots","count":42},{"word":"id","count":42},{"word":"students","count":42},{"word":"coming","count":41},{"word":"loved","count":41},{"word":"dad","count":41},{"word":"happen","count":41},{"word":"shopping","count":41},{"word":"march","count":41},{"word":"writing","count":40},{"word":"inside","count":40},{"word":"stuck","count":40},{"word":"walking","count":40},{"word":"line","count":40},{"word":"stop","count":40},{"word":"call","count":39},{"word":"longer","count":39},{"word":"ready","count":39},{"word":"mother","count":39},{"word":"spent","count":39},{"word":"dear","count":39},{"word":"garden","count":39},{"word":"makes","count":38},{"word":"playing","count":38},{"word":"knew","count":38},{"word":"closed","count":38},{"word":"busy","count":38},{"word":"games","count":38},{"word":"hug","count":38},{"word":"holidays","count":37},{"word":"shops","count":37},{"word":"countries","count":37},{"word":"head","count":37},{"word":"positive","count":37},{"word":"learn","count":37},{"word":"brother","count":37},{"word":"workers","count":37},{"word":"teacher","count":37},{"word":"wake","count":37},{"word":"coffee","count":36},{"word":"yesterday","count":36},{"word":"difficult","count":36},{"word":"hear","count":36},{"word":"bored","count":36},{"word":"forward","count":36},{"word":"sun","count":36},{"word":"thinking","count":36},{"word":"sister","count":35},{"word":"technology","count":35},{"word":"return","count":35},{"word":"worse","count":35},{"word":"car","count":35},{"word":"sick","count":35},{"word":"feels","count":35},{"word":"essential","count":34},{"word":"free","count":34},{"word":"leave","count":34},{"word":"taking","count":34},{"word":"excited","count":34},{"word":"give","count":34},{"word":"government","count":34},{"word":"close","count":34},{"word":"late","count":34},{"word":"needed","count":34},{"word":"schools","count":34},{"word":"human","count":34},{"word":"cold","count":33},{"word":"happened","count":33},{"word":"birthday","count":33},{"word":"travel","count":33},{"word":"keeping","count":33},{"word":"affected","count":33},{"word":"eat","count":33},{"word":"tea","count":33},{"word":"park","count":33},{"word":"walks","count":32},{"word":"crisis","count":32},{"word":"called","count":32},{"word":"scared","count":32},{"word":"music","count":32},{"word":"son","count":32},{"word":"boring","count":32},{"word":"quiet","count":32},{"word":"public","count":32},{"word":"learnt","count":32},{"word":"bike","count":32},{"word":"wanted","count":32},{"word":"diary","count":32},{"word":"sit","count":31},{"word":"tv","count":31},{"word":"weve","count":31},{"word":"local","count":31},{"word":"touch","count":31},{"word":"starting","count":31},{"word":"group","count":31},{"word":"overseas","count":31},{"word":"strange","count":31},{"word":"stuff","count":31},{"word":"real","count":31},{"word":"beautiful","count":31},{"word":"video","count":31},{"word":"heart","count":31},{"word":"jobs","count":31},{"word":"lonely","count":30},{"word":"slowly","count":30},{"word":"masks","count":30},{"word":"catch","count":30},{"word":"set","count":30},{"word":"eating","count":30},{"word":"couple","count":30},{"word":"break","count":29},{"word":"facetime","count":29},{"word":"water","count":29},{"word":"screen","count":29},{"word":"meeting","count":29},{"word":"wont","count":29},{"word":"sitting","count":29},{"word":"turn","count":29},{"word":"daughter","count":29},{"word":"spending","count":29},{"word":"age","count":29},{"word":"dinner","count":29},{"word":"rest","count":28},{"word":"china","count":28},{"word":"australian","count":28},{"word":"wouldnt","count":28},{"word":"worry","count":28},{"word":"hours","count":28},{"word":"amazing","count":28},{"word":"cooking","count":28},{"word":"important","count":28},{"word":"knowing","count":28},{"word":"trip","count":28},{"word":"nsw","count":28},{"word":"sports","count":28},{"word":"worried","count":27},{"word":"mothers","count":27},{"word":"waiting","count":27},{"word":"doesnt","count":27},{"word":"point","count":27},{"word":"schooling","count":27},{"word":"kind","count":27},{"word":"birds","count":27},{"word":"history","count":27},{"word":"light","count":27},{"word":"calls","count":27},{"word":"families","count":27},{"word":"eyes","count":27},{"word":"whats","count":27},{"word":"situation","count":27},{"word":"classes","count":27},{"word":"missing","count":27},{"word":"enjoying","count":27},{"word":"enjoyed","count":27},{"word":"running","count":27},{"word":"empty","count":27},{"word":"global","count":27},{"word":"older","count":26},{"word":"rules","count":26},{"word":"realise","count":26},{"word":"cases","count":26},{"word":"fact","count":26},{"word":"heard","count":26},{"word":"disease","count":26},{"word":"matter","count":26},{"word":"easy","count":26},{"word":"doctors","count":26},{"word":"routine","count":26},{"word":"minutes","count":26},{"word":"slow","count":26},{"word":"state","count":26},{"word":"panic","count":26},{"word":"book","count":26},{"word":"la","count":26},{"word":"worst","count":26},{"word":"books","count":26},{"word":"fresh","count":26},{"word":"hour","count":25},{"word":"email","count":25},{"word":"quickly","count":25},{"word":"youre","count":25},{"word":"completely","count":25},{"word":"netflix","count":25},{"word":"missed","count":25},{"word":"hasnt","count":25},{"word":"write","count":25},{"word":"activities","count":25},{"word":"half","count":25},{"word":"ways","count":25},{"word":"ill","count":25},{"word":"run","count":25},{"word":"sad","count":25},{"word":"sanitiser","count":25},{"word":"space","count":25},{"word":"continue","count":25},{"word":"forget","count":25},{"word":"stopped","count":24},{"word":"young","count":24},{"word":"annoying","count":24},{"word":"street","count":24},{"word":"support","count":24},{"word":"interesting","count":24},{"word":"isolated","count":24},{"word":"wonderful","count":24},{"word":"freedom","count":24},{"word":"hair","count":24},{"word":"taught","count":24},{"word":"positives","count":24},{"word":"contact","count":23},{"word":"lunch","count":23},{"word":"anxiety","count":23},{"word":"sense","count":23},{"word":"breakfast","count":23},{"word":"wash","count":23},{"word":"favourite","count":23},{"word":"decided","count":23},{"word":"hit","count":23},{"word":"realised","count":23},{"word":"words","count":23},{"word":"period","count":23},{"word":"locked","count":22},{"word":"control","count":22},{"word":"anymore","count":22},{"word":"rain","count":22},{"word":"grandparents","count":22},{"word":"society","count":22},{"word":"dark","count":22},{"word":"table","count":22},{"word":"de","count":22},{"word":"played","count":22},{"word":"supermarket","count":22},{"word":"story","count":22},{"word":"meant","count":22},{"word":"media","count":22},{"word":"gym","count":22},{"word":"shes","count":22},{"word":"nursing","count":22},{"word":"desk","count":22},{"word":"earth","count":22},{"word":"understand","count":22},{"word":"classroom","count":22},{"word":"reason","count":22},{"word":"walked","count":22},{"word":"community","count":21},{"word":"forever","count":21},{"word":"breath","count":21},{"word":"death","count":21},{"word":"brought","count":21},{"word":"body","count":21},{"word":"weekend","count":21},{"word":"shop","count":21},{"word":"number","count":21},{"word":"train","count":21},{"word":"month","count":21},{"word":"dream","count":21},{"word":"middle","count":21},{"word":"helped","count":21},{"word":"turned","count":21},{"word":"short","count":21},{"word":"means","count":21},{"word":"opportunity","count":20},{"word":"hold","count":20},{"word":"window","count":20},{"word":"die","count":20},{"word":"stressful","count":20},{"word":"skills","count":20},{"word":"shut","count":20},{"word":"isolating","count":20},{"word":"joy","count":20},{"word":"sanitizer","count":20},{"word":"streets","count":20},{"word":"usual","count":20},{"word":"gave","count":20},{"word":"challenge","count":20},{"word":"stand","count":20},{"word":"buying","count":20},{"word":"thoughts","count":20},{"word":"term","count":20},{"word":"nature","count":20},{"word":"door","count":20}],"ages":[{"item":"6","count":6},{"item":"8","count":3},{"item":"9","count":2},{"item":"10","count":14},{"item":"11","count":37},{"item":"12","count":120},{"item":"13","count":44},{"item":"14","count":19},{"item":"15","count":5},{"item":"16","count":12},{"item":"17","count":9},{"item":"18","count":2},{"item":"19","count":5},{"item":"20","count":4},{"item":"21","count":2},{"item":"22","count":3},{"item":"23","count":3},{"item":"25","count":3},{"item":"26","count":2},{"item":"27","count":1},{"item":"28","count":4},{"item":"29","count":2},{"item":"30","count":3},{"item":"31","count":3},{"item":"32","count":2},{"item":"33","count":4},{"item":"34","count":2},{"item":"35","count":4},{"item":"36","count":2},{"item":"37","count":2},{"item":"38","count":4},{"item":"40","count":2},{"item":"41","count":4},{"item":"42","count":1},{"item":"45","count":2},{"item":"46","count":1},{"item":"47","count":4},{"item":"49","count":8},{"item":"50","count":1},{"item":"51","count":5},{"item":"52","count":7},{"item":"53","count":9},{"item":"54","count":2},{"item":"55","count":3},{"item":"56","count":2},{"item":"57","count":5},{"item":"58","count":3},{"item":"59","count":6},{"item":"60","count":7},{"item":"61","count":5},{"item":"62","count":3},{"item":"63","count":14},{"item":"64","count":5},{"item":"65","count":2},{"item":"66","count":4},{"item":"67","count":4},{"item":"68","count":3},{"item":"69","count":13},{"item":"70","count":3},{"item":"71","count":7},{"item":"72","count":11},{"item":"73","count":6},{"item":"74","count":5},{"item":"78","count":2},{"item":"79","count":2},{"item":"81","count":1},{"item":"83","count":1},{"item":"89","count":1},{"item":"102","count":1},{"item":"","count":167},{"item":"70+","count":1},{"item":"10 + 61","count":1},{"item":"11 turning 12 this month","count":1},{"item":"Ageless","count":1},{"item":"12 1/2","count":1},{"item":"00","count":1},{"item":"11 nearly 12","count":1},{"item":"50ish","count":3},{"item":"62.8","count":1},{"item":"73-3/4","count":1},{"item":"4.5","count":1},{"item":"50 s","count":1}],"agesNumeric":[{"item":"6","count":6},{"item":"8","count":3},{"item":"9","count":2},{"item":"10","count":14},{"item":"11","count":37},{"item":"12","count":120},{"item":"13","count":44},{"item":"14","count":19},{"item":"15","count":5},{"item":"16","count":12},{"item":"17","count":9},{"item":"18","count":2},{"item":"19","count":5},{"item":"20","count":4},{"item":"21","count":2},{"item":"22","count":3},{"item":"23","count":3},{"item":"25","count":3},{"item":"26","count":2},{"item":"27","count":1},{"item":"28","count":4},{"item":"29","count":2},{"item":"30","count":3},{"item":"31","count":3},{"item":"32","count":2},{"item":"33","count":4},{"item":"34","count":2},{"item":"35","count":4},{"item":"36","count":2},{"item":"37","count":2},{"item":"38","count":4},{"item":"40","count":2},{"item":"41","count":4},{"item":"42","count":1},{"item":"45","count":2},{"item":"46","count":1},{"item":"47","count":4},{"item":"49","count":8},{"item":"50","count":1},{"item":"51","count":5},{"item":"52","count":7},{"item":"53","count":9},{"item":"54","count":2},{"item":"55","count":3},{"item":"56","count":2},{"item":"57","count":5},{"item":"58","count":3},{"item":"59","count":6},{"item":"60","count":7},{"item":"61","count":5},{"item":"62","count":3},{"item":"63","count":14},{"item":"64","count":5},{"item":"65","count":2},{"item":"66","count":4},{"item":"67","count":4},{"item":"68","count":3},{"item":"69","count":13},{"item":"70","count":3},{"item":"71","count":7},{"item":"72","count":11},{"item":"73","count":6},{"item":"74","count":5},{"item":"78","count":2},{"item":"79","count":2},{"item":"81","count":1},{"item":"83","count":1},{"item":"89","count":1},{"item":"102","count":1}],"agesGrouped":[{"item":"5–10","count":11},{"item":"10–15","count":234},{"item":"15–20","count":33},{"item":"20–25","count":12},{"item":"25–30","count":12},{"item":"30–35","count":14},{"item":"35–40","count":12},{"item":"40–45","count":7},{"item":"45–50","count":15},{"item":"50–55","count":24},{"item":"55–60","count":19},{"item":"60–65","count":34},{"item":"65–70","count":26},{"item":"70–75","count":32},{"item":"75–80","count":4},{"item":"80–85","count":2},{"item":"85–90","count":1},{"item":"100–105","count":1}],"cities":[{"item":"","count":156},{"item":"croydon","count":3},{"item":"bayview","count":1},{"item":"sydney","count":142},{"item":"greenfield park","count":1},{"item":"thornleigh","count":1},{"item":"eastwood","count":1},{"item":"wahroonga","count":13},{"item":"enmore","count":3},{"item":"bowral","count":5},{"item":"millers point","count":1},{"item":"maroubra","count":3},{"item":"old bar","count":2},{"item":"springwood","count":1},{"item":"oak flats","count":1},{"item":"armidale","count":2},{"item":"long beach","count":4},{"item":"little bay","count":2},{"item":"katoomba","count":1},{"item":"alstonville","count":1},{"item":"southern highlands","count":1},{"item":"annangrove","count":1},{"item":"castle hill sydney","count":1},{"item":"mittagong","count":2},{"item":"sydney, maroubra","count":1},{"item":"glenmore park","count":2},{"item":"mortlake","count":1},{"item":"north epping","count":1},{"item":"baulkham hills","count":2},{"item":"fairfield west","count":1},{"item":"lake macquarie","count":3},{"item":"coogee","count":1},{"item":"burwood","count":3},{"item":"central coast","count":4},{"item":"sydney, nsw","count":1},{"item":"hazelbrook","count":7},{"item":"mortdale","count":8},{"item":"wagga wagga","count":3},{"item":"maroubra sydney","count":1},{"item":"kogarah","count":3},{"item":"lakemba","count":2},{"item":"lidcombe","count":1},{"item":"unanderra","count":5},{"item":"wollongong","count":31},{"item":"artarmon","count":2},{"item":"greenacre, nsw","count":1},{"item":"benowa","count":4},{"item":"ashfield","count":5},{"item":"strathfield","count":1},{"item":"syd","count":1},{"item":"dolans bay","count":4},{"item":"cronulla","count":1},{"item":"taree","count":5},{"item":"mount colah","count":4},{"item":"stanwell park","count":1},{"item":"port macquarie","count":3},{"item":"pennant hills","count":1},{"item":"the rocks","count":4},{"item":"elanora heights","count":1},{"item":"rosebery","count":1},{"item":"tallong","count":8},{"item":"lilyfield","count":1},{"item":"darlinghurst","count":2},{"item":"yarramundi","count":1},{"item":"bondi beach","count":1},{"item":"penshurst","count":4},{"item":"dulwich hill","count":2},{"item":"tweed heads","count":2},{"item":"crows nest","count":1},{"item":"connells point","count":3},{"item":"richmond","count":2},{"item":"hills district","count":1},{"item":"camden","count":2},{"item":"asquith","count":1},{"item":"denistone","count":1},{"item":"north strathfield","count":1},{"item":"newcastle","count":4},{"item":"avalon","count":1},{"item":"windsor downs","count":1},{"item":"peakhurst","count":5},{"item":"hurstville","count":3},{"item":"penshurst,nsw","count":1},{"item":"sydney, riverwood","count":1},{"item":"botany","count":1},{"item":"georges hall","count":1},{"item":"melbourne","count":3},{"item":"berala","count":2},{"item":"ryde","count":1},{"item":"sydeny, oatley","count":1},{"item":"canberra","count":2},{"item":"allambie","count":1},{"item":"wollstonecraft","count":3},{"item":"chatswood","count":1},{"item":"manly","count":4},{"item":"wauchope","count":1},{"item":"bondi","count":1},{"item":"oatley","count":3},{"item":"rockdale","count":1},{"item":"hurstville grove","count":2},{"item":"yagoona","count":1},{"item":"sydney, padstow","count":1},{"item":"south hurstville","count":1},{"item":"sylvania","count":1},{"item":"winston hills","count":1},{"item":"abbotsford","count":3},{"item":"figtree","count":1},{"item":"peakhurst, nsw","count":1},{"item":"rozelle","count":1},{"item":"fisher","count":1},{"item":"richmond hill","count":1},{"item":"riverwood","count":2},{"item":"australia nsw lugarno","count":1},{"item":"westmead","count":1},{"item":"central coast , sydney","count":1},{"item":"gwynneville","count":1},{"item":"berkeley","count":2},{"item":"illawarra","count":1},{"item":"farmborough heights","count":1},{"item":"north ryde","count":1},{"item":"parramatta","count":1},{"item":"cobbitty","count":1},{"item":"hornsby","count":1},{"item":"woy woy","count":1},{"item":"maitland","count":3},{"item":"chippendale","count":1},{"item":"drummoyne","count":1},{"item":"macquarie park","count":2},{"item":"fairlight","count":1},{"item":"carlingford","count":1},{"item":"meadowbank","count":1},{"item":"umina beach","count":1},{"item":"turramurra","count":2},{"item":"forest lodge","count":1},{"item":"raby","count":1},{"item":"fairfield","count":3},{"item":"randwick","count":1},{"item":"wiley park","count":1},{"item":"mona vale","count":1},{"item":"wallarobba","count":1},{"item":"wyong","count":1},{"item":"matraville","count":1},{"item":"hawkesbury heights","count":1},{"item":"blue mountains","count":2},{"item":"weston","count":1},{"item":"jannali","count":2},{"item":"kurri","count":1},{"item":"guildford","count":1},{"item":"kensington","count":1},{"item":"western sydney","count":1},{"item":"grays point","count":1},{"item":"terrey hills","count":1},{"item":"point clare","count":1},{"item":"east perth","count":1},{"item":"roseville chase","count":1},{"item":"dee why, sydney","count":1},{"item":"guildford west","count":1},{"item":"gordon","count":2},{"item":"mangoplah","count":1},{"item":"marayong","count":1},{"item":"newcastle area","count":1},{"item":"blacktown","count":1},{"item":"concord west","count":1},{"item":"northwood","count":1},{"item":"glenbrook","count":1},{"item":"summer hill","count":2},{"item":"loftus","count":1},{"item":"marrickville","count":7},{"item":"springfield","count":1},{"item":"kingsford","count":2},{"item":"hervey bay","count":1},{"item":"banora point","count":1},{"item":"liverpool","count":2},{"item":"moorebank","count":1},{"item":"charlestown","count":1},{"item":"canterbury","count":1},{"item":"kurrajong heights","count":1},{"item":"castle hill","count":1},{"item":"wombarra","count":1},{"item":"werrington","count":2},{"item":"henley beach south","count":1},{"item":"wollongbar","count":1},{"item":"londonderry","count":1},{"item":"coffs harbour","count":1},{"item":"west pennant hills","count":1},{"item":"sydeny","count":1},{"item":"wyoming","count":1},{"item":"bradbury","count":1},{"item":"albert park","count":1},{"item":"menai","count":1},{"item":"carlton","count":2},{"item":"salamander bay","count":1},{"item":"kenthurst","count":1},{"item":"blaxland","count":1},{"item":"redfern","count":1},{"item":"south west rocks","count":1},{"item":"cairns","count":1},{"item":"south wentworthville","count":1},{"item":"toowoon bay","count":1},{"item":"faulconbridge","count":1},{"item":"stanmore","count":1},{"item":"inner city, sydney","count":1},{"item":"dulwich hill, sydney","count":1},{"item":"erskineville, sydney","count":1}],"states":[{"item":"NSW","count":565},{"item":"","count":88},{"item":"QLD","count":11},{"item":"VIC","count":6},{"item":"ACT","count":2},{"item":"WA","count":1},{"item":"SA","count":1}],"postcodes":[{"item":"0","count":155,"name":null,"lat":null,"long":null},{"item":"2000","count":70,"name":"sydney","lat":-33.859953,"long":151.256649},{"item":"2007","count":1,"name":"broadway","lat":-33.883189,"long":151.19665},{"item":"2010","count":2,"name":"darlinghurst","lat":-33.884119,"long":151.212262},{"item":"2011","count":2,"name":"potts point","lat":-33.873599,"long":151.221626},{"item":"2016","count":1,"name":"redfern","lat":-33.894912,"long":151.206211},{"item":"2018","count":1,"name":"eastlakes","lat":-33.9233,"long":151.202697},{"item":"2019","count":1,"name":"banksmeadow","lat":-33.946923,"long":151.207285},{"item":"2020","count":3,"name":"mascot","lat":-33.936179,"long":151.176775},{"item":"2022","count":1,"name":"bondi junction","lat":-33.896401,"long":151.245049},{"item":"2026","count":2,"name":"bondi","lat":-33.891041,"long":151.268968},{"item":"2031","count":2,"name":"clovelly","lat":-33.914832,"long":151.239167},{"item":"2032","count":2,"name":"daceyville","lat":-33.930314,"long":151.223936},{"item":"2033","count":1,"name":"kensington","lat":-33.91139,"long":151.218435},{"item":"2034","count":1,"name":"coogee","lat":-33.929096,"long":151.252171},{"item":"2035","count":7,"name":"maroubra","lat":-33.945635,"long":151.241292},{"item":"2036","count":3,"name":"chifley","lat":-33.969624,"long":151.237844},{"item":"2037","count":1,"name":"forest lodge","lat":-33.880179,"long":151.184458},{"item":"2038","count":2,"name":"annandale","lat":-33.881624,"long":151.170165},{"item":"2039","count":3,"name":"rozelle","lat":-33.867187,"long":151.171915},{"item":"2040","count":2,"name":"leichhardt","lat":-33.878774,"long":151.156819},{"item":"2042","count":3,"name":"enmore","lat":-33.900649,"long":151.175354},{"item":"2043","count":1,"name":"erskineville","lat":-33.903521,"long":151.184665},{"item":"2046","count":3,"name":"abbotsford","lat":-33.866044,"long":151.133865},{"item":"2047","count":3,"name":"drummoyne","lat":-33.853924,"long":151.165735},{"item":"2048","count":1,"name":"stanmore","lat":-33.89418,"long":151.16564},{"item":"2049","count":1,"name":"petersham","lat":-33.897219,"long":151.15085},{"item":"2064","count":3,"name":"artarmon","lat":-33.813209,"long":151.183801},{"item":"2065","count":5,"name":"crows nest","lat":-33.828361,"long":151.192212},{"item":"2066","count":1,"name":"lane cove","lat":-33.818641,"long":151.160912},{"item":"2067","count":1,"name":"chatswood","lat":-33.798378,"long":151.17711},{"item":"2069","count":2,"name":"castle cove","lat":-33.780246,"long":151.195368},{"item":"2070","count":1,"name":"lindfield","lat":-33.78042,"long":151.162007},{"item":"2072","count":2,"name":"gordon","lat":-33.754582,"long":151.153176},{"item":"2073","count":1,"name":"pymble","lat":-33.757296,"long":151.130278},{"item":"2074","count":3,"name":"turramurra","lat":-33.735222,"long":151.123716},{"item":"2076","count":14,"name":"wahroonga","lat":-33.723263,"long":151.108249},{"item":"2077","count":4,"name":"asquith","lat":-33.691922,"long":151.097508},{"item":"2079","count":4,"name":"mount colah","lat":-33.666637,"long":151.112681},{"item":"2081","count":1,"name":"berowra","lat":-33.619756,"long":151.150498},{"item":"2084","count":1,"name":"cottage point","lat":-33.650999,"long":151.216929},{"item":"2086","count":1,"name":"frenchs forest","lat":-33.75185,"long":151.229211},{"item":"2092","count":1,"name":"seaforth","lat":-33.796636,"long":151.241813},{"item":"2094","count":1,"name":"fairlight","lat":-33.795227,"long":151.273242},{"item":"2095","count":4,"name":"manly","lat":-33.815482,"long":151.294675},{"item":"2099","count":1,"name":"cromer","lat":-33.748914,"long":151.279999},{"item":"2100","count":1,"name":"allambie","lat":-33.766409,"long":151.257781},{"item":"2101","count":1,"name":"elanora heights","lat":-33.707117,"long":151.27114},{"item":"2103","count":1,"name":"mona vale","lat":-33.679336,"long":151.302825},{"item":"2104","count":1,"name":"bayview","lat":-33.664921,"long":151.290921},{"item":"2107","count":2,"name":"avalon","lat":-33.634816,"long":151.323289},{"item":"2112","count":1,"name":"denistone east","lat":-33.81658,"long":151.108447},{"item":"2113","count":3,"name":"blenheim road","lat":-33.79419,"long":151.130233},{"item":"2114","count":2,"name":"denistone","lat":-33.810991,"long":151.084181},{"item":"2117","count":1,"name":"dundas","lat":-33.797127,"long":151.04218},{"item":"2118","count":2,"name":"carlingford","lat":-33.775596,"long":151.043518},{"item":"2120","count":3,"name":"pennant hills","lat":-33.731105,"long":151.07359},{"item":"2121","count":1,"name":"epping","lat":-33.774145,"long":151.079919},{"item":"2122","count":1,"name":"eastwood","lat":-33.791357,"long":151.092072},{"item":"2125","count":1,"name":"west pennant hills","lat":-33.752645,"long":151.031807},{"item":"2126","count":2,"name":"cherrybrook","lat":-33.724898,"long":151.043941},{"item":"2127","count":1,"name":"homebush bay","lat":-33.85283,"long":151.076186},{"item":"2130","count":3,"name":"summer hill","lat":-33.892783,"long":151.135883},{"item":"2131","count":6,"name":"ashfield","lat":-33.887602,"long":151.124008},{"item":"2132","count":3,"name":"croydon","lat":-33.882419,"long":151.113385},{"item":"2134","count":3,"name":"burwood","lat":-33.880049,"long":151.101757},{"item":"2135","count":1,"name":"strathfield","lat":-33.881009,"long":151.084759},{"item":"2137","count":2,"name":"breakfast point","lat":-33.85749,"long":151.103751},{"item":"2138","count":1,"name":"concord west","lat":-33.846098,"long":151.086036},{"item":"2141","count":5,"name":"berala","lat":-33.872483,"long":151.044768},{"item":"2145","count":2,"name":"constitution hill","lat":-33.79382308,"long":150.9751544},{"item":"2148","count":1,"name":"arndell park","lat":-33.783751,"long":150.900547},{"item":"2150","count":1,"name":"harris park","lat":-33.814463,"long":151.006506},{"item":"2152","count":1,"name":"northmead","lat":-33.782501,"long":150.996388},{"item":"2153","count":3,"name":"baulkham hills","lat":-33.731651,"long":150.955942},{"item":"2154","count":3,"name":"castle hill","lat":-33.73238,"long":151.000948},{"item":"2156","count":3,"name":"annangrove","lat":-33.656984,"long":150.974528},{"item":"2160","count":1,"name":"merrylands","lat":-33.835883,"long":150.976594},{"item":"2161","count":2,"name":"guildford","lat":-33.858335,"long":150.983724},{"item":"2164","count":1,"name":"smithfield","lat":-33.844153,"long":150.875028},{"item":"2165","count":3,"name":"fairfield","lat":-33.872435,"long":150.947496},{"item":"2168","count":1,"name":"ashcroft","lat":-33.915939,"long":150.875345},{"item":"2170","count":2,"name":"casula","lat":-33.928392,"long":150.921448},{"item":"2176","count":2,"name":"abbotsbury","lat":-33.872014,"long":150.88526},{"item":"2190","count":1,"name":"chullora","lat":-33.901925,"long":151.053858},{"item":"2193","count":1,"name":"ashbury","lat":-33.910308,"long":151.12086},{"item":"2195","count":3,"name":"lakemba","lat":-33.924525,"long":151.076939},{"item":"2196","count":1,"name":"punchbowl","lat":-33.930089,"long":151.057799},{"item":"2198","count":1,"name":"georges hall","lat":-33.908788,"long":150.986277},{"item":"2199","count":1,"name":"yagoona","lat":-33.905586,"long":151.023171},{"item":"2203","count":3,"name":"dulwich hill","lat":-33.90441,"long":151.138999},{"item":"2204","count":9,"name":"marrickville","lat":-33.912288,"long":151.155539},{"item":"2205","count":2,"name":"arncliffe","lat":-33.937551,"long":151.147956},{"item":"2209","count":3,"name":"beverly hills","lat":-33.94913,"long":151.075304},{"item":"2210","count":16,"name":"lugarno","lat":-33.957725,"long":151.052257},{"item":"2211","count":1,"name":"padstow","lat":-33.961366,"long":151.03221},{"item":"2212","count":3,"name":"revesby","lat":-33.947286,"long":151.014547},{"item":"2216","count":2,"name":"banksia","lat":-33.955393,"long":151.148204},{"item":"2217","count":6,"name":"beverley park","lat":-33.974354,"long":151.140345},{"item":"2218","count":2,"name":"allawah","lat":-33.973161,"long":151.117453},{"item":"2220","count":10,"name":"hurstville","lat":-33.966692,"long":151.101764},{"item":"2221","count":7,"name":"blakehurst","lat":-33.992159,"long":151.10599},{"item":"2222","count":5,"name":"penshurst","lat":-33.964713,"long":151.084774},{"item":"2223","count":20,"name":"mortdale","lat":-33.980264,"long":151.071837},{"item":"2224","count":1,"name":"kangaroo point","lat":-34.01362,"long":151.101891},{"item":"2226","count":3,"name":"bonnet bay","lat":-34.009345,"long":151.063808},{"item":"2229","count":4,"name":"caringbah","lat":-34.05494,"long":151.120091},{"item":"2230","count":1,"name":"bundeena","lat":-34.093213,"long":151.136596},{"item":"2232","count":3,"name":"audley","lat":-34.061753,"long":151.064329},{"item":"2234","count":1,"name":"alfords point","lat":-34.021938,"long":151.004412},{"item":"2250","count":3,"name":"bucketty","lat":-33.325373,"long":151.189243},{"item":"2251","count":2,"name":"avoca beach","lat":-33.482209,"long":151.401999},{"item":"2256","count":3,"name":"blackwall","lat":-33.482123,"long":151.331154},{"item":"2257","count":1,"name":"booker bay","lat":-33.520358,"long":151.374403},{"item":"2259","count":1,"name":"alison","lat":-33.208801,"long":151.377213},{"item":"2261","count":2,"name":"bateau bay","lat":-33.315827,"long":151.519708},{"item":"2283","count":1,"name":"arcadia vale","lat":-33.019117,"long":151.57181},{"item":"2285","count":1,"name":"cameron park","lat":-32.933305,"long":151.651095},{"item":"2290","count":1,"name":"bennetts green","lat":-32.983963,"long":151.707801},{"item":"2300","count":3,"name":"newcastle","lat":-32.931635,"long":151.778021},{"item":"2303","count":1,"name":"hamilton","lat":-32.924571,"long":151.743325},{"item":"2317","count":1,"name":"salamander bay","lat":-32.720937,"long":152.076399},{"item":"2320","count":3,"name":"aberglasslyn","lat":-32.741737,"long":151.543675},{"item":"2323","count":1,"name":"ashtonfield","lat":-32.757616,"long":151.607554},{"item":"2326","count":1,"name":"abermain","lat":-32.785207,"long":151.453148},{"item":"2327","count":1,"name":"kurri kurri","lat":-32.820688,"long":151.486212},{"item":"2350","count":2,"name":"aberfoyle","lat":-30.493397,"long":151.906153},{"item":"2384","count":1,"name":null,"lat":null,"long":null},{"item":"2420","count":1,"name":"alison","lat":-32.239696,"long":151.685456},{"item":"2430","count":7,"name":"black head","lat":-31.899311,"long":152.503209},{"item":"2431","count":1,"name":"arakoon","lat":-30.925233,"long":153.053789},{"item":"2444","count":4,"name":"blackmans point","lat":-31.439614,"long":152.87253},{"item":"2446","count":1,"name":"bagnoo","lat":-31.387394,"long":152.466916},{"item":"2450","count":1,"name":"boambee","lat":-30.097726,"long":152.658268},{"item":"2477","count":2,"name":"alstonvale","lat":-28.907675,"long":153.427314},{"item":"2480","count":1,"name":"back creek","lat":-28.706486,"long":153.25943},{"item":"2486","count":3,"name":"banora point","lat":-28.215215,"long":153.479217},{"item":"2500","count":12,"name":"wollongong","lat":-34.423171,"long":150.874294},{"item":"2506","count":2,"name":"berkeley","lat":-34.48494,"long":150.840792},{"item":"2508","count":1,"name":"stanwell park","lat":-34.230944,"long":150.969679},{"item":"2515","count":1,"name":"austinmer","lat":-34.300293,"long":150.9299},{"item":"2525","count":2,"name":"figtree","lat":-34.437229,"long":150.818904},{"item":"2526","count":26,"name":"cordeaux","lat":-34.380765,"long":150.77681},{"item":"2528","count":1,"name":"barrack heights","lat":-34.548722,"long":150.855135},{"item":"2529","count":1,"name":"blackbutt","lat":-34.592433,"long":150.84584},{"item":"2536","count":4,"name":"batehaven","lat":-35.671272,"long":150.125945},{"item":"2560","count":1,"name":"airds","lat":-34.194216,"long":150.768408},{"item":"2566","count":1,"name":"bow bowing","lat":-34.027283,"long":150.842258},{"item":"2570","count":3,"name":"belimbla park","lat":-34.042913,"long":150.525292},{"item":"2575","count":2,"name":"alpine","lat":-34.347195,"long":150.342214},{"item":"2576","count":5,"name":"bong bong","lat":-34.525612,"long":150.503502},{"item":"2577","count":1,"name":"avoca","lat":-34.595027,"long":150.410978},{"item":"2579","count":8,"name":"big hill","lat":-34.711848,"long":150.13033},{"item":"2600","count":1,"name":"canberra","lat":-35.302911,"long":149.201072},{"item":"2602","count":1,"name":"ainslie","lat":-35.248071,"long":149.148147},{"item":"2611","count":1,"name":"bimberi","lat":-35.57315758,"long":148.7089956},{"item":"2650","count":2,"name":"alfredtown","lat":-35.07459,"long":147.376202},{"item":"2652","count":2,"name":"boorga","lat":-35.405064,"long":147.64961},{"item":"2745","count":2,"name":"glenmore park","lat":-33.871341,"long":150.671487},{"item":"2747","count":2,"name":"caddens","lat":-33.77413222,"long":150.7376907},{"item":"2750","count":1,"name":"emu heights","lat":-33.755476,"long":150.678551},{"item":"2753","count":4,"name":"agnes banks","lat":-33.604022,"long":150.646053},{"item":"2756","count":1,"name":"bligh park","lat":-33.466271,"long":150.88744},{"item":"2758","count":1,"name":"berambing","lat":-33.483614,"long":150.601824},{"item":"2774","count":1,"name":"blaxland","lat":-33.732671,"long":150.62902},{"item":"2776","count":1,"name":"faulconbridge","lat":-33.666855,"long":150.553111},{"item":"2777","count":2,"name":"hawkesbury heights","lat":-33.692534,"long":150.587962},{"item":"2779","count":7,"name":"hazelbrook","lat":-33.7237,"long":150.45933},{"item":"2780","count":1,"name":"katoomba","lat":-33.832923,"long":150.435639},{"item":"3000","count":1,"name":"melbourne","lat":-37.817403,"long":144.956776},{"item":"3032","count":1,"name":"ascot vale","lat":-37.774486,"long":144.897221},{"item":"3182","count":1,"name":"st kilda","lat":-37.865322,"long":144.979478},{"item":"3206","count":1,"name":"albert park","lat":-37.846534,"long":144.95086},{"item":"4217","count":4,"name":"benowa","lat":-28.008783,"long":153.412197},{"item":"4551","count":1,"name":"aroona","lat":-26.828067,"long":153.088435},{"item":"4655","count":1,"name":"booral","lat":-25.337998,"long":152.78368},{"item":"4869","count":1,"name":"bentley park","lat":-17.025592,"long":145.730423},{"item":"5022","count":1,"name":"henley beach","lat":-34.905461,"long":138.49264},{"item":"6004","count":1,"name":"east perth","lat":-31.956931,"long":115.874601}],"overseasEntriesCount":1}